{
"type": "FeatureCollection",
"name": "label",
"crs": { "type": "name", "properties": { "name": "urn:ogc:def:crs:OGC:1.3:CRS84" } },
"features": [
{ "type": "Feature", "properties": { "area_id": 1, "documents": 607, "label": "代数幾何学" }, "geometry": { "type": "Point", "coordinates": [ 4.3566, 7.5216 ] } },
{ "type": "Feature", "properties": { "area_id": 2, "documents": 605, "label": "宇宙科学" }, "geometry": { "type": "Point", "coordinates": [ 5.9647, 7.9189 ] } },
{ "type": "Feature", "properties": { "area_id": 3, "documents": 575, "label": "文学・思想" }, "geometry": { "type": "Point", "coordinates": [ 0.7976, 3.992 ] } },
{ "type": "Feature", "properties": { "area_id": 4, "documents": 546, "label": "言語学・文法" }, "geometry": { "type": "Point", "coordinates": [ 2.864, 5.2827 ] } },
{ "type": "Feature", "properties": { "area_id": 5, "documents": 464, "label": "自然災害" }, "geometry": { "type": "Point", "coordinates": [ 6.4447, 5.9359 ] } },
{ "type": "Feature", "properties": { "area_id": 6, "documents": 365, "label": "看護実務" }, "geometry": { "type": "Point", "coordinates": [ 4.3569, 1.719 ] } },
{ "type": "Feature", "properties": { "area_id": 7, "documents": 357, "label": "法律" }, "geometry": { "type": "Point", "coordinates": [ 2.2004, 4.4732 ] } },
{ "type": "Feature", "properties": { "area_id": 8, "documents": 349, "label": "サイバーセキュリティ" }, "geometry": { "type": "Point", "coordinates": [ 4.7063, 5.2973 ] } },
{ "type": "Feature", "properties": { "area_id": 9, "documents": 348, "label": "触媒・錯体" }, "geometry": { "type": "Point", "coordinates": [ 9.394, 7.4312 ] } },
{ "type": "Feature", "properties": { "area_id": 10, "documents": 348, "label": "神経科学" }, "geometry": { "type": "Point", "coordinates": [ 8.2219, 3.1078 ] } },
{ "type": "Feature", "properties": { "area_id": 11, "documents": 323, "label": "材料熱加工" }, "geometry": { "type": "Point", "coordinates": [ 7.3028, 7.1495 ] } },
{ "type": "Feature", "properties": { "area_id": 12, "documents": 300, "label": "沖縄・思想" }, "geometry": { "type": "Point", "coordinates": [ 1.2697, 3.8471 ] } },
{ "type": "Feature", "properties": { "area_id": 13, "documents": 300, "label": "観光産業" }, "geometry": { "type": "Point", "coordinates": [ 2.5697, 3.7313 ] } },
{ "type": "Feature", "properties": { "area_id": 14, "documents": 287, "label": "教育・授業" }, "geometry": { "type": "Point", "coordinates": [ 3.0659, 2.4957 ] } },
{ "type": "Feature", "properties": { "area_id": 15, "documents": 287, "label": "海洋・気候変動" }, "geometry": { "type": "Point", "coordinates": [ 6.9957, 5.8398 ] } },
{ "type": "Feature", "properties": { "area_id": 16, "documents": 278, "label": "知覚心理学" }, "geometry": { "type": "Point", "coordinates": [ 5.5674, 4.1376 ] } },
{ "type": "Feature", "properties": { "area_id": 17, "documents": 274, "label": "文学・宗教" }, "geometry": { "type": "Point", "coordinates": [ 0.5792, 4.5244 ] } },
{ "type": "Feature", "properties": { "area_id": 18, "documents": 247, "label": "学校教育" }, "geometry": { "type": "Point", "coordinates": [ 3.4907, 3.0198 ] } },
{ "type": "Feature", "properties": { "area_id": 19, "documents": 228, "label": "疼痛治療" }, "geometry": { "type": "Point", "coordinates": [ 7.9789, 2.4353 ] } },
{ "type": "Feature", "properties": { "area_id": 20, "documents": 224, "label": "歯・骨再生" }, "geometry": { "type": "Point", "coordinates": [ 10.5221, 3.462 ] } },
{ "type": "Feature", "properties": { "area_id": 21, "documents": 221, "label": "統計的推論" }, "geometry": { "type": "Point", "coordinates": [ 4.6523, 6.1365 ] } },
{ "type": "Feature", "properties": { "area_id": 22, "documents": 213, "label": "地球化学・同位体" }, "geometry": { "type": "Point", "coordinates": [ 7.4503, 6.2973 ] } },
{ "type": "Feature", "properties": { "area_id": 23, "documents": 208, "label": "考古学" }, "geometry": { "type": "Point", "coordinates": [ 1.0524, 4.9155 ] } },
{ "type": "Feature", "properties": { "area_id": 24, "documents": 208, "label": "肝臓老化" }, "geometry": { "type": "Point", "coordinates": [ 10.0882, 2.6106 ] } },
{ "type": "Feature", "properties": { "area_id": 25, "documents": 202, "label": "腸内細菌" }, "geometry": { "type": "Point", "coordinates": [ 9.115, 2.5597 ] } },
{ "type": "Feature", "properties": { "area_id": 26, "documents": 193, "label": "励起・スピン" }, "geometry": { "type": "Point", "coordinates": [ 7.4669, 8.2463 ] } },
{ "type": "Feature", "properties": { "area_id": 27, "documents": 186, "label": "政治・国際関係" }, "geometry": { "type": "Point", "coordinates": [ 1.4162, 3.5924 ] } },
{ "type": "Feature", "properties": { "area_id": 28, "documents": 185, "label": "菌の耐性" }, "geometry": { "type": "Point", "coordinates": [ 8.7141, 3.9308 ] } },
{ "type": "Feature", "properties": { "area_id": 29, "documents": 181, "label": "関節疾患" }, "geometry": { "type": "Point", "coordinates": [ 7.1316, 2.702 ] } },
{ "type": "Feature", "properties": { "area_id": 30, "documents": 173, "label": "嚥下・リハビリ" }, "geometry": { "type": "Point", "coordinates": [ 6.5417, 2.157 ] } },
{ "type": "Feature", "properties": { "area_id": 31, "documents": 169, "label": "心血管疾患" }, "geometry": { "type": "Point", "coordinates": [ 8.5695, 1.1292 ] } },
{ "type": "Feature", "properties": { "area_id": 32, "documents": 168, "label": "神経回路" }, "geometry": { "type": "Point", "coordinates": [ 7.4236, 3.4591 ] } },
{ "type": "Feature", "properties": { "area_id": 33, "documents": 166, "label": "腫瘍免疫" }, "geometry": { "type": "Point", "coordinates": [ 11.0061, 1.9774 ] } },
{ "type": "Feature", "properties": { "area_id": 34, "documents": 164, "label": "薬物作用・歯周疾患" }, "geometry": { "type": "Point", "coordinates": [ 8.6888, 2.3874 ] } },
{ "type": "Feature", "properties": { "area_id": 35, "documents": 163, "label": "都市経営" }, "geometry": { "type": "Point", "coordinates": [ 3.3718, 4.2467 ] } },
{ "type": "Feature", "properties": { "area_id": 36, "documents": 161, "label": "ナノ材料" }, "geometry": { "type": "Point", "coordinates": [ 8.3854, 7.6369 ] } },
{ "type": "Feature", "properties": { "area_id": 37, "documents": 161, "label": "肝臓疾患" }, "geometry": { "type": "Point", "coordinates": [ 9.4818, 2.1632 ] } },
{ "type": "Feature", "properties": { "area_id": 38, "documents": 158, "label": "心不全" }, "geometry": { "type": "Point", "coordinates": [ 8.2706, 1.4084 ] } },
{ "type": "Feature", "properties": { "area_id": 39, "documents": 156, "label": "会計学" }, "geometry": { "type": "Point", "coordinates": [ 2.9549, 4.3902 ] } },
{ "type": "Feature", "properties": { "area_id": 40, "documents": 156, "label": "分子生物学" }, "geometry": { "type": "Point", "coordinates": [ 9.4533, 5.9461 ] } },
{ "type": "Feature", "properties": { "area_id": 41, "documents": 154, "label": "ナノ粒子" }, "geometry": { "type": "Point", "coordinates": [ 8.5251, 7.9228 ] } },
{ "type": "Feature", "properties": { "area_id": 42, "documents": 152, "label": "統合失調症" }, "geometry": { "type": "Point", "coordinates": [ 7.5866, 1.9047 ] } },
{ "type": "Feature", "properties": { "area_id": 43, "documents": 148, "label": "生殖医療" }, "geometry": { "type": "Point", "coordinates": [ 10.1093, 4.1015 ] } },
{ "type": "Feature", "properties": { "area_id": 44, "documents": 147, "label": "量子理論" }, "geometry": { "type": "Point", "coordinates": [ 5.49, 8.1598 ] } },
{ "type": "Feature", "properties": { "area_id": 45, "documents": 143, "label": "細胞膜" }, "geometry": { "type": "Point", "coordinates": [ 10.2559, 4.7444 ] } },
{ "type": "Feature", "properties": { "area_id": 46, "documents": 142, "label": "幹細胞" }, "geometry": { "type": "Point", "coordinates": [ 10.9537, 3.4505 ] } },
{ "type": "Feature", "properties": { "area_id": 47, "documents": 141, "label": "航空工学" }, "geometry": { "type": "Point", "coordinates": [ 6.3869, 6.9734 ] } },
{ "type": "Feature", "properties": { "area_id": 48, "documents": 140, "label": "子ども発達心理学" }, "geometry": { "type": "Point", "coordinates": [ 4.7394, 2.7981 ] } },
{ "type": "Feature", "properties": { "area_id": 49, "documents": 140, "label": "種の進化" }, "geometry": { "type": "Point", "coordinates": [ 7.5003, 4.9242 ] } },
{ "type": "Feature", "properties": { "area_id": 50, "documents": 140, "label": "シナプス" }, "geometry": { "type": "Point", "coordinates": [ 9.2397, 3.935 ] } },
{ "type": "Feature", "properties": { "area_id": 51, "documents": 139, "label": "障害者支援" }, "geometry": { "type": "Point", "coordinates": [ 4.2048, 2.5804 ] } },
{ "type": "Feature", "properties": { "area_id": 52, "documents": 139, "label": "進化生物学" }, "geometry": { "type": "Point", "coordinates": [ 7.8292, 4.6879 ] } },
{ "type": "Feature", "properties": { "area_id": 53, "documents": 137, "label": "染色体" }, "geometry": { "type": "Point", "coordinates": [ 8.4965, 4.4694 ] } },
{ "type": "Feature", "properties": { "area_id": 54, "documents": 136, "label": "タンパク質合成" }, "geometry": { "type": "Point", "coordinates": [ 9.5533, 5.5363 ] } },
{ "type": "Feature", "properties": { "area_id": 55, "documents": 135, "label": "地盤工学" }, "geometry": { "type": "Point", "coordinates": [ 6.5591, 6.5264 ] } },
{ "type": "Feature", "properties": { "area_id": 56, "documents": 134, "label": "腸内細菌" }, "geometry": { "type": "Point", "coordinates": [ 8.8937, 2.7278 ] } },
{ "type": "Feature", "properties": { "area_id": 57, "documents": 131, "label": "粒子物理学" }, "geometry": { "type": "Point", "coordinates": [ 6.6883, 7.6206 ] } },
{ "type": "Feature", "properties": { "area_id": 58, "documents": 130, "label": "光触媒" }, "geometry": { "type": "Point", "coordinates": [ 9.2808, 7.7964 ] } },
{ "type": "Feature", "properties": { "area_id": 59, "documents": 129, "label": "企業・市場" }, "geometry": { "type": "Point", "coordinates": [ 2.8385, 4.1657 ] } },
{ "type": "Feature", "properties": { "area_id": 60, "documents": 125, "label": "RNA修飾" }, "geometry": { "type": "Point", "coordinates": [ 9.5109, 5.1934 ] } },
{ "type": "Feature", "properties": { "area_id": 61, "documents": 125, "label": "肝臓疾患" }, "geometry": { "type": "Point", "coordinates": [ 9.0948, 3.4398 ] } },
{ "type": "Feature", "properties": { "area_id": 62, "documents": 122, "label": "科学総合調査" }, "geometry": { "type": "Point", "coordinates": [ 3.4471, 3.7522 ] } },
{ "type": "Feature", "properties": { "area_id": 63, "documents": 122, "label": "教育学" }, "geometry": { "type": "Point", "coordinates": [ 2.8527, 2.289 ] } },
{ "type": "Feature", "properties": { "area_id": 64, "documents": 121, "label": "材料・光化学" }, "geometry": { "type": "Point", "coordinates": [ 8.3942, 7.019 ] } },
{ "type": "Feature", "properties": { "area_id": 65, "documents": 121, "label": "癌治療" }, "geometry": { "type": "Point", "coordinates": [ 10.6608, 2.1523 ] } },
{ "type": "Feature", "properties": { "area_id": 66, "documents": 120, "label": "数学" }, "geometry": { "type": "Point", "coordinates": [ 4.7412, 7.445 ] } },
{ "type": "Feature", "properties": { "area_id": 67, "documents": 120, "label": "看護実習" }, "geometry": { "type": "Point", "coordinates": [ 4.0139, 1.9847 ] } },
{ "type": "Feature", "properties": { "area_id": 68, "documents": 119, "label": "神経疾患" }, "geometry": { "type": "Point", "coordinates": [ 8.6322, 2.7948 ] } },
{ "type": "Feature", "properties": { "area_id": 69, "documents": 117, "label": "土壌生態学" }, "geometry": { "type": "Point", "coordinates": [ 7.8606, 5.88 ] } },
{ "type": "Feature", "properties": { "area_id": 70, "documents": 116, "label": "生態・自然科学" }, "geometry": { "type": "Point", "coordinates": [ 7.2694, 5.2907 ] } },
{ "type": "Feature", "properties": { "area_id": 71, "documents": 114, "label": "脂肪代謝" }, "geometry": { "type": "Point", "coordinates": [ 9.7462, 3.3267 ] } },
{ "type": "Feature", "properties": { "area_id": 72, "documents": 114, "label": "脂肪代謝" }, "geometry": { "type": "Point", "coordinates": [ 9.5515, 2.9043 ] } },
{ "type": "Feature", "properties": { "area_id": 73, "documents": 114, "label": "免疫療法" }, "geometry": { "type": "Point", "coordinates": [ 10.3548, 2.5842 ] } },
{ "type": "Feature", "properties": { "area_id": 74, "documents": 113, "label": "癌治療" }, "geometry": { "type": "Point", "coordinates": [ 10.8748, 1.7065 ] } },
{ "type": "Feature", "properties": { "area_id": 75, "documents": 111, "label": "都市工学" }, "geometry": { "type": "Point", "coordinates": [ 2.3353, 3.6165 ] } },
{ "type": "Feature", "properties": { "area_id": 76, "documents": 111, "label": "医薬・生命科学" }, "geometry": { "type": "Point", "coordinates": [ 9.8587, 5.3045 ] } },
{ "type": "Feature", "properties": { "area_id": 77, "documents": 110, "label": "睡眠・感情" }, "geometry": { "type": "Point", "coordinates": [ 7.0079, 3.5965 ] } },
{ "type": "Feature", "properties": { "area_id": 78, "documents": 110, "label": "肝臓脂肪代謝" }, "geometry": { "type": "Point", "coordinates": [ 9.4531, 2.4569 ] } },
{ "type": "Feature", "properties": { "area_id": 79, "documents": 109, "label": "網膜変性" }, "geometry": { "type": "Point", "coordinates": [ 9.0529, 1.6766 ] } },
{ "type": "Feature", "properties": { "area_id": 80, "documents": 106, "label": "半導体デバイス" }, "geometry": { "type": "Point", "coordinates": [ 7.8627, 7.8355 ] } },
{ "type": "Feature", "properties": { "area_id": 81, "documents": 105, "label": "癌診断" }, "geometry": { "type": "Point", "coordinates": [ 10.2207, 1.4257 ] } },
{ "type": "Feature", "properties": { "area_id": 82, "documents": 103, "label": "触媒・水素還元" }, "geometry": { "type": "Point", "coordinates": [ 8.8598, 7.3131 ] } },
{ "type": "Feature", "properties": { "area_id": 83, "documents": 103, "label": "イネ生育" }, "geometry": { "type": "Point", "coordinates": [ 8.2749, 4.848 ] } },
{ "type": "Feature", "properties": { "area_id": 84, "documents": 103, "label": "脂肪代謝" }, "geometry": { "type": "Point", "coordinates": [ 9.5158, 2.671 ] } },
{ "type": "Feature", "properties": { "area_id": 85, "documents": 102, "label": "筋肉疾患" }, "geometry": { "type": "Point", "coordinates": [ 7.2849, 3.0155 ] } },
{ "type": "Feature", "properties": { "area_id": 86, "documents": 102, "label": "コンクリート材料" }, "geometry": { "type": "Point", "coordinates": [ 6.8358, 6.7299 ] } },
{ "type": "Feature", "properties": { "area_id": 87, "documents": 100, "label": "ロボット・運転" }, "geometry": { "type": "Point", "coordinates": [ 5.0967, 4.8794 ] } },
{ "type": "Feature", "properties": { "area_id": 88, "documents": 100, "label": "熱電材料" }, "geometry": { "type": "Point", "coordinates": [ 7.5351, 7.962 ] } },
{ "type": "Feature", "properties": { "area_id": 89, "documents": 100, "label": "免疫炎症" }, "geometry": { "type": "Point", "coordinates": [ 9.8395, 2.0874 ] } },
{ "type": "Feature", "properties": { "area_id": 90, "documents": 99, "label": "教育・AI" }, "geometry": { "type": "Point", "coordinates": [ 3.2874, 2.7081 ] } },
{ "type": "Feature", "properties": { "area_id": 91, "documents": 99, "label": "植物科学・生態学" }, "geometry": { "type": "Point", "coordinates": [ 8.497, 5.0957 ] } },
{ "type": "Feature", "properties": { "area_id": 92, "documents": 99, "label": "植物学" }, "geometry": { "type": "Point", "coordinates": [ 8.2471, 5.3071 ] } },
{ "type": "Feature", "properties": { "area_id": 93, "documents": 99, "label": "老化" }, "geometry": { "type": "Point", "coordinates": [ 10.6724, 2.8723 ] } },
{ "type": "Feature", "properties": { "area_id": 94, "documents": 98, "label": "呼吸器医学・診断" }, "geometry": { "type": "Point", "coordinates": [ 7.1811, 2.046 ] } },
{ "type": "Feature", "properties": { "area_id": 95, "documents": 98, "label": "スピン物性" }, "geometry": { "type": "Point", "coordinates": [ 7.2836, 8.5148 ] } },
{ "type": "Feature", "properties": { "area_id": 96, "documents": 97, "label": "ウイルス学" }, "geometry": { "type": "Point", "coordinates": [ 8.8574, 4.1585 ] } },
{ "type": "Feature", "properties": { "area_id": 97, "documents": 96, "label": "音楽・思想" }, "geometry": { "type": "Point", "coordinates": [ 0.904, 3.7833 ] } },
{ "type": "Feature", "properties": { "area_id": 98, "documents": 96, "label": "タンパク質修飾" }, "geometry": { "type": "Point", "coordinates": [ 9.5472, 4.8698 ] } },
{ "type": "Feature", "properties": { "area_id": 99, "documents": 95, "label": "麻酔医学" }, "geometry": { "type": "Point", "coordinates": [ 8.0287, 2.134 ] } },
{ "type": "Feature", "properties": { "area_id": 100, "documents": 93, "label": "放射線" }, "geometry": { "type": "Point", "coordinates": [ 6.9016, 4.4737 ] } },
{ "type": "Feature", "properties": { "area_id": 101, "documents": 93, "label": "腎臓機能" }, "geometry": { "type": "Point", "coordinates": [ 8.8841, 1.358 ] } },
{ "type": "Feature", "properties": { "area_id": 102, "documents": 92, "label": "脳神経行動学" }, "geometry": { "type": "Point", "coordinates": [ 6.3898, 3.8101 ] } },
{ "type": "Feature", "properties": { "area_id": 103, "documents": 91, "label": "ナノ材料" }, "geometry": { "type": "Point", "coordinates": [ 8.6653, 7.6807 ] } },
{ "type": "Feature", "properties": { "area_id": 104, "documents": 91, "label": "老化・肥満" }, "geometry": { "type": "Point", "coordinates": [ 9.1691, 3.083 ] } },
{ "type": "Feature", "properties": { "area_id": 105, "documents": 90, "label": "LiB電池" }, "geometry": { "type": "Point", "coordinates": [ 8.6738, 8.2313 ] } },
{ "type": "Feature", "properties": { "area_id": 106, "documents": 90, "label": "合金設計" }, "geometry": { "type": "Point", "coordinates": [ 7.9182, 7.5401 ] } },
{ "type": "Feature", "properties": { "area_id": 107, "documents": 90, "label": "膵臓癌" }, "geometry": { "type": "Point", "coordinates": [ 10.3984, 1.7427 ] } },
{ "type": "Feature", "properties": { "area_id": 108, "documents": 89, "label": "政治・選挙" }, "geometry": { "type": "Point", "coordinates": [ 1.8359, 3.8991 ] } },
{ "type": "Feature", "properties": { "area_id": 109, "documents": 89, "label": "レーザー物理" }, "geometry": { "type": "Point", "coordinates": [ 6.9664, 7.9668 ] } },
{ "type": "Feature", "properties": { "area_id": 110, "documents": 89, "label": "肝炎" }, "geometry": { "type": "Point", "coordinates": [ 9.4915, 3.5239 ] } },
{ "type": "Feature", "properties": { "area_id": 111, "documents": 87, "label": "認知症" }, "geometry": { "type": "Point", "coordinates": [ 6.1393, 2.1703 ] } },
{ "type": "Feature", "properties": { "area_id": 112, "documents": 87, "label": "眼疾患" }, "geometry": { "type": "Point", "coordinates": [ 8.0746, 2.6722 ] } },
{ "type": "Feature", "properties": { "area_id": 113, "documents": 86, "label": "歩行・リハビリ" }, "geometry": { "type": "Point", "coordinates": [ 5.9369, 3.5308 ] } },
{ "type": "Feature", "properties": { "area_id": 114, "documents": 86, "label": "栄養学・高齢者健康" }, "geometry": { "type": "Point", "coordinates": [ 5.3266, 2.6201 ] } },
{ "type": "Feature", "properties": { "area_id": 115, "documents": 86, "label": "哲学・思想" }, "geometry": { "type": "Point", "coordinates": [ 1.4191, 4.2181 ] } },
{ "type": "Feature", "properties": { "area_id": 116, "documents": 85, "label": "通信工学" }, "geometry": { "type": "Point", "coordinates": [ 5.6172, 6.6286 ] } },
{ "type": "Feature", "properties": { "area_id": 117, "documents": 85, "label": "網膜変性" }, "geometry": { "type": "Point", "coordinates": [ 8.9126, 1.9176 ] } },
{ "type": "Feature", "properties": { "area_id": 118, "documents": 84, "label": "心臓疾患" }, "geometry": { "type": "Point", "coordinates": [ 8.381, 1.6808 ] } },
{ "type": "Feature", "properties": { "area_id": 119, "documents": 83, "label": "意思決定・消費行動" }, "geometry": { "type": "Point", "coordinates": [ 3.8144, 4.397 ] } },
{ "type": "Feature", "properties": { "area_id": 120, "documents": 83, "label": "ナノ素材" }, "geometry": { "type": "Point", "coordinates": [ 8.1744, 7.7105 ] } },
{ "type": "Feature", "properties": { "area_id": 121, "documents": 83, "label": "腸内環境と歯周疾患" }, "geometry": { "type": "Point", "coordinates": [ 9.2898, 2.3143 ] } },
{ "type": "Feature", "properties": { "area_id": 122, "documents": 82, "label": "ロボット制御" }, "geometry": { "type": "Point", "coordinates": [ 5.2874, 5.9523 ] } },
{ "type": "Feature", "properties": { "area_id": 123, "documents": 82, "label": "教育とICT" }, "geometry": { "type": "Point", "coordinates": [ 3.8293, 3.3928 ] } },
{ "type": "Feature", "properties": { "area_id": 124, "documents": 82, "label": "歯科医療" }, "geometry": { "type": "Point", "coordinates": [ 6.676, 2.6212 ] } },
{ "type": "Feature", "properties": { "area_id": 125, "documents": 81, "label": "介護と施設管理" }, "geometry": { "type": "Point", "coordinates": [ 4.4691, 2.1538 ] } },
{ "type": "Feature", "properties": { "area_id": 126, "documents": 81, "label": "振動・流体力学" }, "geometry": { "type": "Point", "coordinates": [ 6.4377, 7.3009 ] } },
{ "type": "Feature", "properties": { "area_id": 127, "documents": 81, "label": "精子・胚" }, "geometry": { "type": "Point", "coordinates": [ 9.7554, 4.0498 ] } },
{ "type": "Feature", "properties": { "area_id": 128, "documents": 81, "label": "糖尿病" }, "geometry": { "type": "Point", "coordinates": [ 8.6247, 1.4344 ] } },
{ "type": "Feature", "properties": { "area_id": 129, "documents": 80, "label": "妊娠・心血管疾患リスク" }, "geometry": { "type": "Point", "coordinates": [ 8.5112, 2.0547 ] } },
{ "type": "Feature", "properties": { "area_id": 130, "documents": 79, "label": "運動科学・リハビリ" }, "geometry": { "type": "Point", "coordinates": [ 6.9963, 3.0024 ] } },
{ "type": "Feature", "properties": { "area_id": 131, "documents": 79, "label": "建築・文化" }, "geometry": { "type": "Point", "coordinates": [ 1.1665, 4.1813 ] } },
{ "type": "Feature", "properties": { "area_id": 132, "documents": 79, "label": "光電素子" }, "geometry": { "type": "Point", "coordinates": [ 7.8398, 8.1636 ] } },
{ "type": "Feature", "properties": { "area_id": 133, "documents": 78, "label": "音楽演奏" }, "geometry": { "type": "Point", "coordinates": [ 4.4135, 4.1841 ] } },
{ "type": "Feature", "properties": { "area_id": 134, "documents": 78, "label": "経済学" }, "geometry": { "type": "Point", "coordinates": [ 3.0627, 4.1529 ] } },
{ "type": "Feature", "properties": { "area_id": 135, "documents": 78, "label": "癌・転移" }, "geometry": { "type": "Point", "coordinates": [ 11.0842, 1.6402 ] } },
{ "type": "Feature", "properties": { "area_id": 136, "documents": 78, "label": "癌・放射線治療" }, "geometry": { "type": "Point", "coordinates": [ 10.5951, 2.3549 ] } },
{ "type": "Feature", "properties": { "area_id": 137, "documents": 77, "label": "光物性" }, "geometry": { "type": "Point", "coordinates": [ 7.2114, 8.0043 ] } },
{ "type": "Feature", "properties": { "area_id": 138, "documents": 76, "label": "看護ケア" }, "geometry": { "type": "Point", "coordinates": [ 4.9828, 1.8857 ] } },
{ "type": "Feature", "properties": { "area_id": 139, "documents": 76, "label": "合金加工" }, "geometry": { "type": "Point", "coordinates": [ 7.6531, 7.3274 ] } },
{ "type": "Feature", "properties": { "area_id": 140, "documents": 76, "label": "タンパク質制御" }, "geometry": { "type": "Point", "coordinates": [ 9.2949, 4.7701 ] } },
{ "type": "Feature", "properties": { "area_id": 141, "documents": 76, "label": "神経遺伝学" }, "geometry": { "type": "Point", "coordinates": [ 8.9806, 2.122 ] } },
{ "type": "Feature", "properties": { "area_id": 142, "documents": 75, "label": "ロボット操作" }, "geometry": { "type": "Point", "coordinates": [ 5.5537, 4.9322 ] } },
{ "type": "Feature", "properties": { "area_id": 143, "documents": 75, "label": "太陽電池" }, "geometry": { "type": "Point", "coordinates": [ 8.144, 8.0608 ] } },
{ "type": "Feature", "properties": { "area_id": 144, "documents": 74, "label": "妊娠期の健康" }, "geometry": { "type": "Point", "coordinates": [ 5.5398, 2.3621 ] } },
{ "type": "Feature", "properties": { "area_id": 145, "documents": 74, "label": "子ども支援" }, "geometry": { "type": "Point", "coordinates": [ 4.4316, 2.68 ] } },
{ "type": "Feature", "properties": { "area_id": 146, "documents": 74, "label": "脳疾患" }, "geometry": { "type": "Point", "coordinates": [ 8.2238, 2.1013 ] } },
{ "type": "Feature", "properties": { "area_id": 147, "documents": 74, "label": "心血管疾患" }, "geometry": { "type": "Point", "coordinates": [ 10.1057, 2.2336 ] } },
{ "type": "Feature", "properties": { "area_id": 148, "documents": 72, "label": "ロボット・画像処理" }, "geometry": { "type": "Point", "coordinates": [ 5.286, 5.4493 ] } },
{ "type": "Feature", "properties": { "area_id": 149, "documents": 72, "label": "建築・文化" }, "geometry": { "type": "Point", "coordinates": [ 1.2856, 4.503 ] } },
{ "type": "Feature", "properties": { "area_id": 150, "documents": 71, "label": "医療・画像" }, "geometry": { "type": "Point", "coordinates": [ 6.9092, 2.4554 ] } },
{ "type": "Feature", "properties": { "area_id": 151, "documents": 69, "label": "脊髄損傷" }, "geometry": { "type": "Point", "coordinates": [ 8.3228, 2.519 ] } },
{ "type": "Feature", "properties": { "area_id": 152, "documents": 68, "label": "災害復興" }, "geometry": { "type": "Point", "coordinates": [ 2.9243, 3.5032 ] } },
{ "type": "Feature", "properties": { "area_id": 153, "documents": 68, "label": "関節痛" }, "geometry": { "type": "Point", "coordinates": [ 7.6036, 2.5464 ] } },
{ "type": "Feature", "properties": { "area_id": 154, "documents": 67, "label": "行動分析" }, "geometry": { "type": "Point", "coordinates": [ 4.1539, 4.2056 ] } },
{ "type": "Feature", "properties": { "area_id": 155, "documents": 67, "label": "喘息" }, "geometry": { "type": "Point", "coordinates": [ 9.0917, 1.9812 ] } },
{ "type": "Feature", "properties": { "area_id": 156, "documents": 66, "label": "考古学・文化" }, "geometry": { "type": "Point", "coordinates": [ 1.0588, 4.5211 ] } },
{ "type": "Feature", "properties": { "area_id": 157, "documents": 66, "label": "微生物・ウイルス" }, "geometry": { "type": "Point", "coordinates": [ 8.7841, 3.48 ] } },
{ "type": "Feature", "properties": { "area_id": 158, "documents": 66, "label": "癌放射線治療" }, "geometry": { "type": "Point", "coordinates": [ 10.705, 1.8327 ] } },
{ "type": "Feature", "properties": { "area_id": 159, "documents": 65, "label": "有機化学" }, "geometry": { "type": "Point", "coordinates": [ 9.5029, 6.7599 ] } },
{ "type": "Feature", "properties": { "area_id": 160, "documents": 65, "label": "磁性材料" }, "geometry": { "type": "Point", "coordinates": [ 7.2929, 8.721 ] } },
{ "type": "Feature", "properties": { "area_id": 161, "documents": 65, "label": "妊娠合併症" }, "geometry": { "type": "Point", "coordinates": [ 8.5066, 1.8354 ] } },
{ "type": "Feature", "properties": { "area_id": 162, "documents": 64, "label": "発光分子" }, "geometry": { "type": "Point", "coordinates": [ 8.7052, 7.534 ] } },
{ "type": "Feature", "properties": { "area_id": 163, "documents": 64, "label": "DNA" }, "geometry": { "type": "Point", "coordinates": [ 9.1748, 4.3518 ] } },
{ "type": "Feature", "properties": { "area_id": 164, "documents": 63, "label": "IoT・セキュリティ" }, "geometry": { "type": "Point", "coordinates": [ 5.0008, 5.6926 ] } },
{ "type": "Feature", "properties": { "area_id": 165, "documents": 63, "label": "熱物性" }, "geometry": { "type": "Point", "coordinates": [ 7.2998, 7.7347 ] } },
{ "type": "Feature", "properties": { "area_id": 166, "documents": 63, "label": "ゲノム編集" }, "geometry": { "type": "Point", "coordinates": [ 9.107, 4.1649 ] } },
{ "type": "Feature", "properties": { "area_id": 167, "documents": 63, "label": "オートファジー" }, "geometry": { "type": "Point", "coordinates": [ 9.1794, 4.5935 ] } },
{ "type": "Feature", "properties": { "area_id": 168, "documents": 63, "label": "DNA修復メカニズム" }, "geometry": { "type": "Point", "coordinates": [ 9.4023, 4.4692 ] } },
{ "type": "Feature", "properties": { "area_id": 169, "documents": 63, "label": "癌治療" }, "geometry": { "type": "Point", "coordinates": [ 10.8571, 1.433 ] } },
{ "type": "Feature", "properties": { "area_id": 170, "documents": 62, "label": "言語学・方言" }, "geometry": { "type": "Point", "coordinates": [ 2.3162, 5.3056 ] } },
{ "type": "Feature", "properties": { "area_id": 171, "documents": 62, "label": "産後期の健康" }, "geometry": { "type": "Point", "coordinates": [ 5.1015, 2.4733 ] } },
{ "type": "Feature", "properties": { "area_id": 172, "documents": 62, "label": "美術・文学" }, "geometry": { "type": "Point", "coordinates": [ 0.9783, 4.308 ] } },
{ "type": "Feature", "properties": { "area_id": 173, "documents": 61, "label": "理論物理学" }, "geometry": { "type": "Point", "coordinates": [ 5.2874, 7.5501 ] } },
{ "type": "Feature", "properties": { "area_id": 174, "documents": 61, "label": "環境科学" }, "geometry": { "type": "Point", "coordinates": [ 7.928, 6.5662 ] } },
{ "type": "Feature", "properties": { "area_id": 175, "documents": 61, "label": "認知科学・音楽" }, "geometry": { "type": "Point", "coordinates": [ 4.7169, 4.1258 ] } },
{ "type": "Feature", "properties": { "area_id": 176, "documents": 61, "label": "法律・国際関係" }, "geometry": { "type": "Point", "coordinates": [ 2.1343, 3.9286 ] } },
{ "type": "Feature", "properties": { "area_id": 177, "documents": 61, "label": "幕府・権力" }, "geometry": { "type": "Point", "coordinates": [ 0.8477, 4.4445 ] } },
{ "type": "Feature", "properties": { "area_id": 178, "documents": 61, "label": "免疫療法" }, "geometry": { "type": "Point", "coordinates": [ 11.363, 1.556 ] } },
{ "type": "Feature", "properties": { "area_id": 179, "documents": 61, "label": "ワクチン開発" }, "geometry": { "type": "Point", "coordinates": [ 9.2729, 3.2748 ] } },
{ "type": "Feature", "properties": { "area_id": 180, "documents": 60, "label": "無線給電" }, "geometry": { "type": "Point", "coordinates": [ 5.7922, 6.9052 ] } },
{ "type": "Feature", "properties": { "area_id": 181, "documents": 60, "label": "植物・昆虫学" }, "geometry": { "type": "Point", "coordinates": [ 8.9617, 4.9723 ] } },
{ "type": "Feature", "properties": { "area_id": 182, "documents": 60, "label": "運動・スポーツ科学" }, "geometry": { "type": "Point", "coordinates": [ 6.7843, 3.0286 ] } },
{ "type": "Feature", "properties": { "area_id": 183, "documents": 60, "label": "労働・雇用" }, "geometry": { "type": "Point", "coordinates": [ 2.6898, 4.0131 ] } },
{ "type": "Feature", "properties": { "area_id": 184, "documents": 59, "label": "心理カウンセリング" }, "geometry": { "type": "Point", "coordinates": [ 4.1136, 2.4151 ] } },
{ "type": "Feature", "properties": { "area_id": 185, "documents": 59, "label": "スピン物理学" }, "geometry": { "type": "Point", "coordinates": [ 7.0688, 7.8284 ] } },
{ "type": "Feature", "properties": { "area_id": 186, "documents": 58, "label": "合金組成" }, "geometry": { "type": "Point", "coordinates": [ 7.9955, 7.4161 ] } },
{ "type": "Feature", "properties": { "area_id": 187, "documents": 58, "label": "癌治療・免疫療法" }, "geometry": { "type": "Point", "coordinates": [ 10.5427, 1.5086 ] } },
{ "type": "Feature", "properties": { "area_id": 188, "documents": 58, "label": "アレルギー" }, "geometry": { "type": "Point", "coordinates": [ 9.4628, 1.7342 ] } },
{ "type": "Feature", "properties": { "area_id": 189, "documents": 58, "label": "糖尿病・癌" }, "geometry": { "type": "Point", "coordinates": [ 10.3788, 2.3049 ] } },
{ "type": "Feature", "properties": { "area_id": 190, "documents": 57, "label": "防災教育" }, "geometry": { "type": "Point", "coordinates": [ 2.9691, 3.0353 ] } },
{ "type": "Feature", "properties": { "area_id": 191, "documents": 57, "label": "生化学・代謝" }, "geometry": { "type": "Point", "coordinates": [ 9.2383, 5.5163 ] } },
{ "type": "Feature", "properties": { "area_id": 192, "documents": 57, "label": "再生医療" }, "geometry": { "type": "Point", "coordinates": [ 10.7749, 3.3109 ] } },
{ "type": "Feature", "properties": { "area_id": 193, "documents": 56, "label": "微生物学" }, "geometry": { "type": "Point", "coordinates": [ 8.4224, 5.6027 ] } },
{ "type": "Feature", "properties": { "area_id": 194, "documents": 56, "label": "神経回路" }, "geometry": { "type": "Point", "coordinates": [ 7.7788, 3.0133 ] } },
{ "type": "Feature", "properties": { "area_id": 195, "documents": 56, "label": "眼・歯周疾患" }, "geometry": { "type": "Point", "coordinates": [ 8.7781, 2.1275 ] } },
{ "type": "Feature", "properties": { "area_id": 196, "documents": 56, "label": "移植免疫学" }, "geometry": { "type": "Point", "coordinates": [ 10.5542, 2.6011 ] } },
{ "type": "Feature", "properties": { "area_id": 197, "documents": 55, "label": "機械学習モデル" }, "geometry": { "type": "Point", "coordinates": [ 4.4849, 4.9745 ] } },
{ "type": "Feature", "properties": { "area_id": 198, "documents": 55, "label": "太陽光発電" }, "geometry": { "type": "Point", "coordinates": [ 8.0831, 7.8918 ] } },
{ "type": "Feature", "properties": { "area_id": 199, "documents": 55, "label": "エクソソーム" }, "geometry": { "type": "Point", "coordinates": [ 9.736, 3.0546 ] } },
{ "type": "Feature", "properties": { "area_id": 200, "documents": 54, "label": "運動科学・リハビリ" }, "geometry": { "type": "Point", "coordinates": [ 6.7177, 3.2959 ] } },
{ "type": "Feature", "properties": { "area_id": 201, "documents": 54, "label": "災害対策" }, "geometry": { "type": "Point", "coordinates": [ 3.4798, 3.3893 ] } },
{ "type": "Feature", "properties": { "area_id": 202, "documents": 54, "label": "建築・歴史" }, "geometry": { "type": "Point", "coordinates": [ 1.5056, 4.4137 ] } },
{ "type": "Feature", "properties": { "area_id": 203, "documents": 54, "label": "宗教・思想" }, "geometry": { "type": "Point", "coordinates": [ 1.1948, 3.5343 ] } },
{ "type": "Feature", "properties": { "area_id": 204, "documents": 54, "label": "観光・農業" }, "geometry": { "type": "Point", "coordinates": [ 2.7828, 3.8148 ] } },
{ "type": "Feature", "properties": { "area_id": 205, "documents": 54, "label": "腸内細菌" }, "geometry": { "type": "Point", "coordinates": [ 8.4486, 3.3118 ] } },
{ "type": "Feature", "properties": { "area_id": 206, "documents": 54, "label": "イネ・共生" }, "geometry": { "type": "Point", "coordinates": [ 8.1657, 5.0231 ] } },
{ "type": "Feature", "properties": { "area_id": 207, "documents": 54, "label": "免疫療法" }, "geometry": { "type": "Point", "coordinates": [ 11.1787, 1.7747 ] } },
{ "type": "Feature", "properties": { "area_id": 208, "documents": 53, "label": "ワクチン・抗体" }, "geometry": { "type": "Point", "coordinates": [ 9.5508, 3.2671 ] } },
{ "type": "Feature", "properties": { "area_id": 209, "documents": 52, "label": "生態学" }, "geometry": { "type": "Point", "coordinates": [ 8.343, 6.0337 ] } },
{ "type": "Feature", "properties": { "area_id": 210, "documents": 52, "label": "育児・健康科学" }, "geometry": { "type": "Point", "coordinates": [ 4.6487, 2.4005 ] } },
{ "type": "Feature", "properties": { "area_id": 211, "documents": 52, "label": "触媒反応" }, "geometry": { "type": "Point", "coordinates": [ 9.3319, 6.9954 ] } },
{ "type": "Feature", "properties": { "area_id": 212, "documents": 52, "label": "肺疾患" }, "geometry": { "type": "Point", "coordinates": [ 9.3823, 1.6101 ] } },
{ "type": "Feature", "properties": { "area_id": 213, "documents": 51, "label": "電子回路" }, "geometry": { "type": "Point", "coordinates": [ 6.018, 7.0084 ] } },
{ "type": "Feature", "properties": { "area_id": 214, "documents": 51, "label": "ロボット制御" }, "geometry": { "type": "Point", "coordinates": [ 5.9656, 6.4346 ] } },
{ "type": "Feature", "properties": { "area_id": 215, "documents": 51, "label": "災害復興" }, "geometry": { "type": "Point", "coordinates": [ 2.9927, 3.3008 ] } },
{ "type": "Feature", "properties": { "area_id": 216, "documents": 51, "label": "半導体結晶" }, "geometry": { "type": "Point", "coordinates": [ 7.6491, 7.5564 ] } },
{ "type": "Feature", "properties": { "area_id": 217, "documents": 51, "label": "金属合金" }, "geometry": { "type": "Point", "coordinates": [ 7.7197, 7.7341 ] } },
{ "type": "Feature", "properties": { "area_id": 218, "documents": 51, "label": "細菌" }, "geometry": { "type": "Point", "coordinates": [ 8.6862, 4.3463 ] } },
{ "type": "Feature", "properties": { "area_id": 219, "documents": 51, "label": "自己免疫疾患" }, "geometry": { "type": "Point", "coordinates": [ 9.863, 2.8415 ] } },
{ "type": "Feature", "properties": { "area_id": 220, "documents": 50, "label": "脳神経・認知科学" }, "geometry": { "type": "Point", "coordinates": [ 6.7802, 3.7576 ] } },
{ "type": "Feature", "properties": { "area_id": 221, "documents": 50, "label": "養護支援" }, "geometry": { "type": "Point", "coordinates": [ 3.9708, 2.3108 ] } },
{ "type": "Feature", "properties": { "area_id": 222, "documents": 50, "label": "企業経営" }, "geometry": { "type": "Point", "coordinates": [ 3.167, 4.3074 ] } },
{ "type": "Feature", "properties": { "area_id": 223, "documents": 50, "label": "難聴・内耳疾患" }, "geometry": { "type": "Point", "coordinates": [ 8.4393, 2.45 ] } },
{ "type": "Feature", "properties": { "area_id": 224, "documents": 50, "label": "免疫・病原体" }, "geometry": { "type": "Point", "coordinates": [ 10.0102, 2.9359 ] } }
]
}
