{
"type": "FeatureCollection",
"name": "label",
"crs": { "type": "name", "properties": { "name": "urn:ogc:def:crs:OGC:1.3:CRS84" } },
"features": [
{ "type": "Feature", "properties": { "fid": 1, "documents": 1537, "docs_af2023": 817, "label_alias": "代数幾何学" }, "geometry": { "type": "Point", "coordinates": [ 4.4894, 7.2234 ] } },
{ "type": "Feature", "properties": { "fid": 2, "documents": 3389, "docs_af2023": 1748, "label_alias": "深層学習" }, "geometry": { "type": "Point", "coordinates": [ 4.8509, 4.9698 ] } },
{ "type": "Feature", "properties": { "fid": 3, "documents": 551, "docs_af2023": 258, "label_alias": "考古学" }, "geometry": { "type": "Point", "coordinates": [ 0.5928, 4.4314 ] } },
{ "type": "Feature", "properties": { "fid": 4, "documents": 994, "docs_af2023": 534, "label_alias": "認知科学" }, "geometry": { "type": "Point", "coordinates": [ 5.243, 3.2603 ] } },
{ "type": "Feature", "properties": { "fid": 5, "documents": 960, "docs_af2023": 577, "label_alias": "天文学" }, "geometry": { "type": "Point", "coordinates": [ 6.0516, 7.4967 ] } },
{ "type": "Feature", "properties": { "fid": 6, "documents": 718, "docs_af2023": 385, "label_alias": "リハビリ" }, "geometry": { "type": "Point", "coordinates": [ 6.7988, 2.2546 ] } },
{ "type": "Feature", "properties": { "fid": 7, "documents": 784, "docs_af2023": 453, "label_alias": "神経科学" }, "geometry": { "type": "Point", "coordinates": [ 7.1451, 2.9581 ] } },
{ "type": "Feature", "properties": { "fid": 8, "documents": 512, "docs_af2023": 225, "label_alias": "消費者行動" }, "geometry": { "type": "Point", "coordinates": [ 3.4218, 3.5875 ] } },
{ "type": "Feature", "properties": { "fid": 9, "documents": 760, "docs_af2023": 333, "label_alias": "医療画像診断" }, "geometry": { "type": "Point", "coordinates": [ 7.277, 0.9057 ] } },
{ "type": "Feature", "properties": { "fid": 10, "documents": 1063, "docs_af2023": 513, "label_alias": "嚥下機能" }, "geometry": { "type": "Point", "coordinates": [ 5.9762, 1.4412 ] } },
{ "type": "Feature", "properties": { "fid": 11, "documents": 1194, "docs_af2023": 656, "label_alias": "地震学" }, "geometry": { "type": "Point", "coordinates": [ 6.7905, 5.4292 ] } },
{ "type": "Feature", "properties": { "fid": 12, "documents": 808, "docs_af2023": 440, "label_alias": "言語学" }, "geometry": { "type": "Point", "coordinates": [ 0.8297, 1.5036 ] } },
{ "type": "Feature", "properties": { "fid": 13, "documents": 840, "docs_af2023": 451, "label_alias": "看護学" }, "geometry": { "type": "Point", "coordinates": [ 3.9718, 1.3319 ] } },
{ "type": "Feature", "properties": { "fid": 14, "documents": 1149, "docs_af2023": 661, "label_alias": "触媒化学" }, "geometry": { "type": "Point", "coordinates": [ 9.8378, 7.097 ] } },
{ "type": "Feature", "properties": { "fid": 15, "documents": 2720, "docs_af2023": 1401, "label_alias": "教育学" }, "geometry": { "type": "Point", "coordinates": [ 2.3876, 1.7135 ] } },
{ "type": "Feature", "properties": { "fid": 16, "documents": 1013, "docs_af2023": 502, "label_alias": "児童福祉" }, "geometry": { "type": "Point", "coordinates": [ 3.6486, 2.0982 ] } },
{ "type": "Feature", "properties": { "fid": 17, "documents": 1130, "docs_af2023": 559, "label_alias": "企業経済学" }, "geometry": { "type": "Point", "coordinates": [ 2.8568, 4.1324 ] } },
{ "type": "Feature", "properties": { "fid": 18, "documents": 500, "docs_af2023": 229, "label_alias": "プラズマ物理学" }, "geometry": { "type": "Point", "coordinates": [ 6.9608, 7.4586 ] } },
{ "type": "Feature", "properties": { "fid": 19, "documents": 936, "docs_af2023": 538, "label_alias": "固体物理学" }, "geometry": { "type": "Point", "coordinates": [ 7.4802, 8.1141 ] } },
{ "type": "Feature", "properties": { "fid": 20, "documents": 1878, "docs_af2023": 901, "label_alias": "材料力学" }, "geometry": { "type": "Point", "coordinates": [ 7.4217, 6.669 ] } },
{ "type": "Feature", "properties": { "fid": 21, "documents": 778, "docs_af2023": 432, "label_alias": "生物学" }, "geometry": { "type": "Point", "coordinates": [ 7.8268, 4.4338 ] } },
{ "type": "Feature", "properties": { "fid": 22, "documents": 1292, "docs_af2023": 686, "label_alias": "芸術文学" }, "geometry": { "type": "Point", "coordinates": [ 0.3904, 3.2068 ] } },
{ "type": "Feature", "properties": { "fid": 23, "documents": 708, "docs_af2023": 321, "label_alias": "行政法学" }, "geometry": { "type": "Point", "coordinates": [ 2.2013, 3.4801 ] } },
{ "type": "Feature", "properties": { "fid": 24, "documents": 1007, "docs_af2023": 560, "label_alias": "政治学" }, "geometry": { "type": "Point", "coordinates": [ 1.2401, 3.5315 ] } },
{ "type": "Feature", "properties": { "fid": 25, "documents": 564, "docs_af2023": 278, "label_alias": "ナノ技術" }, "geometry": { "type": "Point", "coordinates": [ 8.668, 7.3804 ] } },
{ "type": "Feature", "properties": { "fid": 26, "documents": 758, "docs_af2023": 383, "label_alias": "薄膜電子材料" }, "geometry": { "type": "Point", "coordinates": [ 8.2235, 7.7242 ] } },
{ "type": "Feature", "properties": { "fid": 27, "documents": 2300, "docs_af2023": 1060, "label_alias": "分子生物学" }, "geometry": { "type": "Point", "coordinates": [ 9.9461, 3.668 ] } },
{ "type": "Feature", "properties": { "fid": 28, "documents": 1329, "docs_af2023": 729, "label_alias": "感染症学" }, "geometry": { "type": "Point", "coordinates": [ 9.066, 3.5252 ] } },
{ "type": "Feature", "properties": { "fid": 29, "documents": 603, "docs_af2023": 328, "label_alias": "農作物学" }, "geometry": { "type": "Point", "coordinates": [ 8.7853, 4.4012 ] } },
{ "type": "Feature", "properties": { "fid": 30, "documents": 769, "docs_af2023": 428, "label_alias": "心血管病理学" }, "geometry": { "type": "Point", "coordinates": [ 8.598, 0.2726 ] } },
{ "type": "Feature", "properties": { "fid": 31, "documents": 4010, "docs_af2023": 2190, "label_alias": "癌医学" }, "geometry": { "type": "Point", "coordinates": [ 10.9556, 0.6699 ] } },
{ "type": "Feature", "properties": { "fid": 32, "documents": 584, "docs_af2023": 307, "label_alias": "筋肉生理学" }, "geometry": { "type": "Point", "coordinates": [ 7.8854, 2.3469 ] } },
{ "type": "Feature", "properties": { "fid": 33, "documents": 589, "docs_af2023": 292, "label_alias": "再生医療" }, "geometry": { "type": "Point", "coordinates": [ 10.8464, 2.361 ] } },
{ "type": "Feature", "properties": { "fid": 34, "documents": 2663, "docs_af2023": 1139, "label_alias": "老化免疫学" }, "geometry": { "type": "Point", "coordinates": [ 10.444, 1.8155 ] } },
{ "type": "Feature", "properties": { "fid": 35, "documents": 564, "docs_af2023": 304, "label_alias": "疼痛学" }, "geometry": { "type": "Point", "coordinates": [ 7.7504, 1.8682 ] } },
{ "type": "Feature", "properties": { "fid": 36, "documents": 1015, "docs_af2023": 492, "label_alias": "神経科学" }, "geometry": { "type": "Point", "coordinates": [ 8.3619, 1.4115 ] } },
{ "type": "Feature", "properties": { "fid": 37, "documents": 2313, "docs_af2023": 1132, "label_alias": "代謝医学" }, "geometry": { "type": "Point", "coordinates": [ 9.2319, 1.807 ] } },
{ "type": "Feature", "properties": { "fid": 38, "documents": 910, "docs_af2023": 507, "label_alias": "免疫炎症学" }, "geometry": { "type": "Point", "coordinates": [ 9.537, 1.1535 ] } }
]
}
